{"Response":{"MetaInfo":{"Timestamp":"2018-10-08T10:50:08.278+0000","NextPageInformation":"2"},"View":[{"_type":"SearchResultsViewType","ViewId":0,"Result":[{"Relevance":1.0,"Distance":213391.6,"MatchLevel":"city","MatchQuality":{"City":1.0},"Location":{"LocationId":"NT_MH4zKEtYEC-yeBXtA.IAEB","LocationType":"point","DisplayPosition":{"Latitude":42.8486,"Longitude":-89.88936},"NavigationPosition":[{"Latitude":42.8486,"Longitude":-89.88936}],"MapView":{"TopLeft":{"Latitude":42.91568,"Longitude":-89.95619},"BottomRight":{"Latitude":42.8129599,"Longitude":-89.83797}},"Address":{"Label":"Moscow, WI, United States","Country":"USA","State":"WI","County":"Iowa","City":"Moscow","PostalCode":"53544","AdditionalData":[{"value":"United States","key":"CountryName"},{"value":"Wisconsin","key":"StateName"},{"value":"Iowa","key":"CountyName"},{"value":"N","key":"PostalCodeType"}]}}},{"Relevance":1.0,"Distance":259437.0,"MatchLevel":"city","MatchQuality":{"City":1.0},"Location":{"LocationId":"NT_7KqGuLcGUlvO31yDE-jgtD","LocationType":"point","DisplayPosition":{"Latitude":42.04871,"Longitude":-84.50944},"NavigationPosition":[{"Latitude":42.04871,"Longitude":-84.50944}],"MapView":{"TopLeft":{"Latitude":42.0622,"Longitude":-84.52761},"BottomRight":{"Latitude":42.03522,"Longitude":-84.49127}},"Address":{"Label":"Moscow, MI, United States","Country":"USA","State":"MI","County":"Hillsdale","City":"Moscow","PostalCode":"49257","AdditionalData":[{"value":"United States","key":"CountryName"},{"value":"Michigan","key":"StateName"},{"value":"Hillsdale","key":"CountyName"},{"value":"P","key":"PostalCodeType"}]}}},{"Relevance":1.0,"Distance":287737.7,"MatchLevel":"city","MatchQuality":{"City":1.0},"Location":{"LocationId":"NT_Ag3PeycnYfdLp06Yhm43wA","LocationType":"point","DisplayPosition":{"Latitude":41.5749,"Longitude":-91.08244},"NavigationPosition":[{"Latitude":41.5749,"Longitude":-91.08244}],"MapView":{"TopLeft":{"Latitude":41.5883899,"Longitude":-91.10047},"BottomRight":{"Latitude":41.56141,"Longitude":-91.06441}},"Address":{"Label":"Moscow, IA, United States","Country":"USA","State":"IA","County":"Muscatine","City":"Moscow","PostalCode":"52760","AdditionalData":[{"value":"United States","key":"CountryName"},{"value":"Iowa","key":"StateName"},{"value":"Muscatine","key":"CountyName"},{"value":"N","key":"PostalCodeType"}]}}},{"Relevance":1.0,"Distance":443995.8,"MatchLevel":"city","MatchQuality":{"City":1.0},"Location":{"LocationId":"NT_chmXtTflAXYlkduP00YuxA","LocationType":"point","DisplayPosition":{"Latitude":38.85616,"Longitude":-84.22877},"NavigationPosition":[{"Latitude":38.85616,"Longitude":-84.22877}],"MapView":{"TopLeft":{"Latitude":38.8662,"Longitude":-84.2333699},"BottomRight":{"Latitude":38.8538,"Longitude":-84.21964}},"Address":{"Label":"Moscow, OH, United States","Country":"USA","State":"OH","County":"Clermont","City":"Moscow","PostalCode":"45153","AdditionalData":[{"value":"United States","key":"CountryName"},{"value":"Ohio","key":"StateName"},{"value":"Clermont","key":"CountyName"},{"value":"N","key":"PostalCodeType"}]}}},{"Relevance":1.0,"Distance":774098.1,"MatchLevel":"city","MatchQuality":{"City":1.0},"Location":{"LocationId":"NT_DQRxY4WNe7cRsoXG2WyDdC","LocationType":"point","DisplayPosition":{"Latitude":35.06301,"Longitude":-89.39392},"NavigationPosition":[{"Latitude":35.06301,"Longitude":-89.39392}],"MapView":{"TopLeft":{"Latitude":35.06557,"Longitude":-89.40715},"BottomRight":{"Latitude":35.05695,"Longitude":-89.38916}},"Address":{"Label":"Moscow, TN, United States","Country":"USA","State":"TN","County":"Fayette","City":"Moscow","PostalCode":"38057","AdditionalData":[{"value":"United States","key":"CountryName"},{"value":"Tennessee","key":"StateName"},{"value":"Fayette","key":"CountyName"},{"value":"N","key":"PostalCodeType"}]}}},{"Relevance":1.0,"Distance":934175.9,"MatchLevel":"city","MatchQuality":{"City":1.0},"Location":{"LocationId":"NT_TgwU7UJxObgfc5lETTacFD","LocationType":"point","DisplayPosition":{"Latitude":34.14735,"Longitude":-91.7933},"NavigationPosition":[{"Latitude":34.14735,"Longitude":-91.7933}],"MapView":{"TopLeft":{"Latitude":34.16084,"Longitude":-91.8096},"BottomRight":{"Latitude":34.13386,"Longitude":-91.777}},"Address":{"Label":"Moscow, AR, United States","Country":"USA","State":"AR","County":"Jefferson","City":"Moscow","PostalCode":"71659","AdditionalData":[{"value":"United States","key":"CountryName"},{"value":"Arkansas","key":"StateName"},{"value":"Jefferson","key":"CountyName"},{"value":"P","key":"PostalCodeType"}]}}},{"Relevance":1.0,"Distance":1008740.9,"MatchLevel":"city","MatchQuality":{"City":1.0},"Location":{"LocationId":"NT_8lgaeR85mvZdueWxn63o7D","LocationType":"point","DisplayPosition":{"Latitude":41.33751,"Longitude":-75.51867},"NavigationPosition":[{"Latitude":41.33751,"Longitude":-75.51867}],"MapView":{"TopLeft":{"Latitude":41.3596,"Longitude":-75.55796},"BottomRight":{"Latitude":41.33231,"Longitude":-75.5057}},"Address":{"Label":"Moscow, PA, United States","Country":"USA","State":"PA","County":"Lackawanna","City":"Moscow","PostalCode":"18444","AdditionalData":[{"value":"United States","key":"CountryName"},{"value":"Pennsylvania","key":"StateName"},{"value":"Lackawanna","key":"CountyName"},{"value":"N","key":"PostalCodeType"}]}}},{"Relevance":1.0,"Distance":1266414.3,"MatchLevel":"city","MatchQuality":{"City":1.0},"Location":{"LocationId":"NT_00ayYtAGUhzWjS9mzod4mC","LocationType":"point","DisplayPosition":{"Latitude":37.3252,"Longitude":-101.20842},"NavigationPosition":[{"Latitude":37.3252,"Longitude":-101.20842}],"MapView":{"TopLeft":{"Latitude":37.32963,"Longitude":-101.21315},"BottomRight":{"Latitude":37.3221599,"Longitude":-101.20309}},"Address":{"Label":"Moscow, KS, United States","Country":"USA","State":"KS","County":"Stevens","City":"Moscow","PostalCode":"67952","AdditionalData":[{"value":"United States","key":"CountryName"},{"value":"Kansas","key":"StateName"},{"value":"Stevens","key":"CountyName"},{"value":"N","key":"PostalCodeType"}]}}},{"Relevance":1.0,"Distance":1377618.4,"MatchLevel":"city","MatchQuality":{"City":1.0},"Location":{"LocationId":"NT_17ARzJ9raWHrPZVrByto.C","LocationType":"point","DisplayPosition":{"Latitude":30.91977,"Longitude":-94.82798},"NavigationPosition":[{"Latitude":30.91977,"Longitude":-94.82798}],"MapView":{"TopLeft":{"Latitude":30.93326,"Longitude":-94.8437},"BottomRight":{"Latitude":30.90628,"Longitude":-94.81226}},"Address":{"Label":"Moscow, TX, United States","Country":"USA","State":"TX","County":"Polk","City":"Moscow","PostalCode":"75960","AdditionalData":[{"value":"United States","key":"CountryName"},{"value":"Texas","key":"StateName"},{"value":"Polk","key":"CountyName"},{"value":"N","key":"PostalCodeType"}]}}},{"Relevance":1.0,"Distance":1471652.7,"MatchLevel":"city","MatchQuality":{"City":1.0},"Location":{"LocationId":"NT_4YLJrLlpdsvzQd56PLaBhD","LocationType":"point","DisplayPosition":{"Latitude":45.07139,"Longitude":-69.89387},"NavigationPosition":[{"Latitude":45.07139,"Longitude":-69.89387}],"MapView":{"TopLeft":{"Latitude":45.17694,"Longitude":-69.96542},"BottomRight":{"Latitude":45.06725,"Longitude":-69.7864}},"Address":{"Label":"Moscow, ME, United States","Country":"USA","State":"ME","County":"Somerset","City":"Moscow","PostalCode":"04920","AdditionalData":[{"value":"United States","key":"CountryName"},{"value":"Maine","key":"StateName"},{"value":"Somerset","key":"CountyName"},{"value":"N","key":"PostalCodeType"}]}}}]}]}}
