[
  {
    "warehouse": {
      "id": 110,
      "name": "Warehouse 110",
      "address": {
        "geoId": 1,
        "latitude": 1,
        "longitude": 2,
        "region": "Новосибирская область",
        "subRegion": "Новосибирский округ",
        "locality": "Новосибирск",
        "street": "Николаева",
        "house": "11",
        "housing": "1/2",
        "building": "2a",
        "apartment": "314",
        "postCode": "649220",
        "comment": "как проехать"
      }
    },
    "partner": {
      "id": 9,
      "code": "Sample Partner",
      "name": "Sample Readable Partner",
      "partnerType": "DELIVERY",
      "logoUrl": "http://test_logo_url/9"
    },
    "shipmentTypes": [
      "IMPORT",
      "WITHDRAW"
    ],
    "shipments": [
      {
        "shipmentType": "IMPORT",
        "schedule": []
      },
      {
        "shipmentType": "WITHDRAW",
        "schedule": []
      }
    ],
    "holidays": []
  },
  {
    "warehouse": {
      "id": 200,
      "name": "SC warehouse",
      "address": {
        "geoId": 1,
        "latitude": 1,
        "longitude": 2,
        "region": "Новосибирская область",
        "subRegion": "Новосибирский округ",
        "locality": "Новосибирск",
        "street": "Николаева",
        "house": "11",
        "housing": "1/2",
        "building": "2a",
        "apartment": "314",
        "postCode": "649220",
        "comment": "как проехать"
      }
    },
    "partner": {
      "id": 20,
      "code": "Sample Partner",
      "name": "Sample Readable Partner",
      "partnerType": "SORTING_CENTER",
      "logoUrl": "http://test_logo_url/20"
    },
    "shipmentTypes": [
      "IMPORT",
      "WITHDRAW"
    ],
    "shipments": [
      {
        "shipmentType": "IMPORT",
        "schedule": []
      },
      {
        "shipmentType": "WITHDRAW",
        "schedule": []
      }
    ],
    "holidays": []
  }
]
