[
  {
    "flight": {
      "number": "S7 4066",
      "company_id": 23,
      "key": "S7 4066|MAD|DME|2016-11-07T23:35|2016-11-08T06:20",
      "departure_station": {
        "city": "Мадрид",
        "iata": "MAD",
        "title": "Барахас"
      },
      "arrival_station": {
        "city": "Москва",
        "iata": "DME",
        "title": "Домодедово"
      },
      "departure_datetime": "2016-11-07T23:35+0100",
      "arrival_datetime": "2016-11-09T06:20+0300"
    },
    "expected": {
      "depart": {
        "airport": "Барахас",
        "iata": "MAD",
        "city": "Мадрид",
        "dateTime": "2016-11-07T23:35:00Z"
      },
      "arrive": {
        "airport": "Домодедово",
        "iata": "DME",
        "city": "Москва",
        "dateTime": "2016-11-09T06:20:00Z"
      },
      "duration": {
        "days": 1,
        "diff": 103500000,
        "hours": 4,
        "minutes": 45
      }
    }
  },
  {
    "flight": {
      "number": "LX 1951",
      "company_id": 23,
      "key": "LX 1951|BCN|ZRH|2016-11-07T06:30|2016-11-07T08:15",
      "departure_station": {
        "city": "Барселона",
        "iata": "BCN",
        "title": "Эль-Прат"
      },
      "arrival_station": {
        "city": "Цюрих",
        "iata": "ZRH",
        "title": "Цюрих"
      },
      "departure_datetime": "2016-11-07T06:30+0100",
      "arrival_datetime": "2016-11-07T08:15+0100"
    },
    "expected": {
      "depart": {
        "airport": "Эль-Прат",
        "iata": "BCN",
        "city": "Барселона",
        "dateTime": "2016-11-07T06:30:00Z"
      },
      "arrive": {
        "airport": "Цюрих",
        "iata": "ZRH",
        "city": "Цюрих",
        "dateTime": "2016-11-07T08:15:00Z"
      },
      "duration": {
        "days": 0,
        "diff": 6300000,
        "hours": 1,
        "minutes": 45
      }
    }
  },
  {
    "flight": {
      "number": "SN 3705",
      "company_id": 23,
      "key": "SN 3705|BRU|BCN|2016-10-06T18:45|2016-10-06T20:45",
      "departure_station": {
        "city": "Брюссель",
        "iata": "BRU",
        "title": "Брюссель"
      },
      "arrival_station": {
        "city": "Барселона",
        "iata": "BCN",
        "title": "Эль-Прат"
      },
      "departure_datetime": "2016-10-06T18:45+0200",
      "arrival_datetime": "2016-10-06T20:45+0200"
    },
    "expected": {
      "depart": {
        "airport": "Брюссель",
        "iata": "BRU",
        "city": "Брюссель",
        "dateTime": "2016-10-06T18:45:00Z"
      },
      "arrive": {
        "airport": "Эль-Прат",
        "iata": "BCN",
        "city": "Барселона",
        "dateTime": "2016-10-06T20:45:00Z"
      },
      "duration": {
        "days": 0,
        "diff": 7200000,
        "hours": 2,
        "minutes": 0
      }
    }
  },
  {
    "flight": {
      "number": "LX 1324",
      "company_id": 23,
      "key": "LX 1324|ZRH|DME|2016-11-07T21:00|2016-11-08T02:25",
      "departure_station": {
        "city": "Цюрих",
        "iata": "ZRH",
        "title": "Цюрих"
      },
      "arrival_station": {
        "city": "Москва",
        "iata": "DME",
        "title": "Домодедово"
      },
      "departure_datetime": "2016-11-07T21:00+0100",
      "arrival_datetime": "2016-11-08T02:25+0300"
    },
    "expected": {
      "depart": {
        "airport": "Цюрих",
        "iata": "ZRH",
        "city": "Цюрих",
        "dateTime": "2016-11-07T21:00:00Z"
      },
      "arrive": {
        "airport": "Домодедово",
        "iata": "DME",
        "city": "Москва",
        "dateTime": "2016-11-08T02:25:00Z"
      },
      "duration": {
        "days": 0,
        "diff": 12300000,
        "hours": 3,
        "minutes": 25
      }
    }
  },
  {
    "flight": {
      "number": "IB 2733",
      "company_id": 23,
      "key": "IB 2733|BCN|MAD|2016-11-07T21:00|2016-11-07T22:20",
      "departure_station": {
        "city": "Барселона",
        "iata": "BCN",
        "title": "Эль-Прат"
      },
      "arrival_station": {
        "city": "Мадрид",
        "iata": "MAD",
        "title": "Барахас"
      },
      "departure_datetime": "2016-11-07T21:00+0100",
      "arrival_datetime": "2016-11-07T22:20+0100"
    },
    "expected": {
      "depart": {
        "airport": "Эль-Прат",
        "iata": "BCN",
        "city": "Барселона",
        "dateTime": "2016-11-07T21:00:00Z"
      },
      "arrive": {
        "airport": "Барахас",
        "iata": "MAD",
        "city": "Мадрид",
        "dateTime": "2016-11-07T22:20:00Z"
      },
      "duration": {
        "days": 0,
        "diff": 4800000,
        "hours": 1,
        "minutes": 20
      }
    }
  }
]